[
  {
    "id": 1,
    "storeName": "스테이인터뷰, 대천",
    "storeEnglishName": "STAY INTERVIEW, Daecheon",
    "imageUrl": "https://stay-interview.s3.amazonaws.com/partnerStore/dc/8670d810-0d03-4884-bd8b-e294e6d2931a_1.jpg",
    "imageName": "1.jpg",
    "address": "충남 보령시 대천항1길",
    "addressDetail": "67-22",
    "phone": "01045753822",
    "latitude": 36.3242691805028,
    "longitude": 126.504902814199
  },
  {
    "id": 2,
    "storeName": "스테이인터뷰, 강릉",
    "storeEnglishName": "STAY INTERVIEW, Gangneung",
    "imageUrl": "https://stay-interview.s3.amazonaws.com/partnerStore/gn/89977932-2b16-45c6-a9c2-89e50ba02ae7_3.jpg",
    "imageName": "3.jpg",
    "address": "강원 강릉시 강동면",
    "addressDetail": "율곡로 1458",
    "phone": "01024767784",
    "latitude": 37.707945588853,
    "longitude": 129.012233121937
  },
  {
    "id": 3,
    "storeName": "스테이인터뷰, 영동",
    "storeEnglishName": "STAY INTERVIEW, Yeongdong",
    "imageUrl": "https://stay-interview.s3.amazonaws.com/partnerStore/yd/a5b9eb2e-194b-4a9d-b0ef-1bd28c19c9a2_1.jpg",
    "imageName": "1.jpg",
    "address": "충북 영동군 양산면",
    "addressDetail": "양산심천로 45",
    "phone": "01094399922",
    "latitude": 36.1323491370651,
    "longitude": 127.682467916143
  },
  {
    "id": 4,
    "storeName": "스테이인터뷰, 제주",
    "storeEnglishName": "STAY INTERVIEW, Jeju",
    "imageUrl": "https://stay-interview.s3.amazonaws.com/partnerStore/jj/28c4726c-da29-49a0-8044-f3d200e7cbcd_1.jpeg",
    "imageName": "1.jpeg",
    "address": "제주특별자치도 서귀포시",
    "addressDetail": "중문관광로 288",
    "phone": "01097909698",
    "latitude": 33.2459115985937,
    "longitude": 126.429485198322
  },
  {
    "id": 5,
    "storeName": "스테이인터뷰, 금산",
    "storeEnglishName": "STAY INTERVIEW, Geumsan",
    "imageUrl": "https://stay-interview.s3.amazonaws.com/partnerStore/gg/ed1d4310-4750-4f4b-8e84-820e9bfd20a0_2.jpg",
    "imageName": "2.jpg",
    "address": "충남 금산군 진산면",
    "addressDetail": "삼가리 176",
    "phone": "01080724866",
    "latitude": 36.1386001702725,
    "longitude": 127.397074077096
  },
  {
    "id": 6,
    "storeName": "스테이인터뷰, 강경",
    "storeEnglishName": "STAY INTERVIEW, Ganggyeong",
    "imageUrl": "https://stay-interview.s3.amazonaws.com/partnerStore/ns/6deab8e3-a36b-4718-a968-714fc6013a69DSC03860.jpg",
    "imageName": "DSC03860.jpg",
    "address": "충남 논산시 강경읍",
    "addressDetail": "계백로167번길 50",
    "phone": "01057539156",
    "latitude": 36.162105182853,
    "longitude": 127.015120783758
  },
  {
    "id": 7,
    "storeName": "스테이인터뷰, 양평",
    "storeEnglishName": "STAY INTERVIEW, Yangpyeong",
    "imageUrl": "https://stay-interview.s3.amazonaws.com/partnerStore/yp/e9062b89-2a8e-4d7f-9d61-e020f3fad78d_DSC04368.jpg",
    "imageName": "DSC04368.jpg",
    "address": "경기 양평군 서종면",
    "addressDetail": "서정로343번길 5",
    "phone": "01057785654",
    "latitude": 37.5956391809377,
    "longitude": 127.42546144209
  },
  {
    "id": 8,
    "storeName": "스테이인터뷰, 장태산",
    "storeEnglishName": "STAY INTERVIEW, Jangtaesan",
    "imageUrl": "https://stay-interview.s3.amazonaws.com/partnerStore/jts/9587b81e-19fe-4c22-a4e3-746b47954fbf_DSC04892.jpg",
    "imageName": "DSC04892.jpg",
    "address": "대전 서구 장안로",
    "addressDetail": "452",
    "phone": "01074261018",
    "latitude": 36.2217620255601,
    "longitude": 127.339023353215
  },
  {
    "id": 9,
    "storeName": "스테이인터뷰, 공주",
    "storeEnglishName": "STAY INTERVIEW, Gongju",
    "imageUrl": "https://stay-interview.s3.amazonaws.com/partnerStore/gj/2d8544f0-d316-4452-b9c7-691e79f7a667_2.jpg",
    "imageName": "2.jpg",
    "address": "충남 공주시 봉황로",
    "addressDetail": "126",
    "phone": "01066179830",
    "latitude": 36.4572971043457,
    "longitude": 127.121458441706
  },
  {
    "id": 10,
    "storeName": "스테이인터뷰, 태안",
    "storeEnglishName": "STAY INTERVIEW, Taean",
    "imageUrl": "https://stay-interview.s3.amazonaws.com/partnerStore/ta/fd75c344-fa45-43d3-90b9-5af06d188365_1.jpg",
    "imageName": "1.jpg",
    "address": "충남 태안군 이원면",
    "addressDetail": "음포길 133-6",
    "phone": "01097791063",
    "latitude": 36.9060422842371,
    "longitude": 126.286901803978
  },
  {
    "id": 11,
    "storeName": "스테이인터뷰, 빌라 드 우",
    "storeEnglishName": "STAY INTERVIEW, Villa de Woo",
    "imageUrl": "https://stay-interview.s3.amazonaws.com/partnerStore/vw/16b4ee1a-85f4-46f4-a993-5571cc81dfeb_DSC07832.jpg",
    "imageName": "DSC07832.jpg",
    "address": "충남 공주시 우성면",
    "addressDetail": "용봉입동로 109-19",
    "phone": "01094399922",
    "latitude": 36.4405752262481,
    "longitude": 127.009248433173
  },
  {
    "id": 14,
    "storeName": "스테이인터뷰, 파도리",
    "storeEnglishName": "STAY INTERVIEW, Padoli",
    "imageUrl": "https://stay-interview.s3.amazonaws.com/partnerStore/pr/59508f44-2a09-43c6-9175-431c35c5f211_DSC04241-1.jpg",
    "imageName": "DSC04241-1.jpg",
    "address": "충남 태안군 소원면",
    "addressDetail": "모항파도로 490-78",
    "phone": "01025172160",
    "latitude": 36.7408609853525,
    "longitude": 126.135875198753
  },
  {
    "id": 33,
    "storeName": "스테이인터뷰, ㅎ ㅏ늘",
    "storeEnglishName": "STAY INTERVIEW, Haneul",
    "imageUrl": "https://stay-interview.s3.amazonaws.com/partnerStore/0f352422-90f9-4259-a275-796289b256e9IMG_3775.jpg",
    "imageName": "IMG_3775.jpg",
    "address": "서울 중구 회현동1가 148-3",
    "addressDetail": "",
    "phone": "01058393487",
    "latitude": 37.556236765118,
    "longitude": 126.981274251755
  }
]
